City_ID,City,Lat,Lng,Max Temp,Humidity,Cloudiness,Wind Speed,Country,Date
0,happy valley-goose bay,53.3168,-60.3315,-1.89,78,20,3.44,CA,1707262525
1,waitangi,-43.9535,-176.5597,65.82,95,98,23.4,NZ,1707262275
2,petropavlovsk-kamchatsky,53.0452,158.6483,14.59,81,75,8.95,RU,1707262308
3,port-aux-francais,-49.35,70.2167,43.48,92,100,22.48,TF,1707262526
4,kolonia town,6.964,158.206,84.31,83,100,17.27,FM,1707262526
5,grytviken,-54.2811,-36.5092,47.91,62,8,4.63,GS,1707262527
6,lebu,-37.6167,-73.65,64.58,91,74,2.8,CL,1707262527
7,invercargill,-46.4,168.35,61.02,73,45,15.01,NZ,1707262527
8,bethel,41.3712,-73.414,35.55,61,0,0.0,US,1707262528
9,margaret river,-33.95,115.0667,69.94,48,0,10.85,AU,1707262528
10,jamestown,42.097,-79.2353,35.24,68,0,8.05,US,1707262435
11,sandnessjoen,66.0217,12.6316,5.52,85,49,13.51,NO,1707262529
12,cabo san lucas,22.8909,-109.9124,81.61,59,40,14.97,MX,1707262529
13,hamilton,39.1834,-84.5333,46.44,62,20,4.61,US,1707262387
14,olonkinbyen,70.9221,-8.7187,26.31,89,57,21.72,SJ,1707262530
15,adamstown,-25.066,-130.1015,76.51,84,56,11.05,PN,1707262273
16,blackmans bay,-43.0167,147.3167,65.52,54,98,3.0,AU,1707262531
17,yuzhno-kurilsk,44.0306,145.8556,16.38,81,69,5.32,RU,1707262531
18,salekhard,66.53,66.6019,-17.52,100,100,1.52,RU,1707262531
19,santiago de cao,-7.9589,-79.2392,77.13,88,40,6.91,PE,1707262532
20,puerto natales,-51.7236,-72.4875,54.32,73,97,1.41,CL,1707262532
21,puerto deseado,-47.7503,-65.8938,69.55,40,87,23.2,AR,1707262288
22,enewetak,11.3474,162.3373,79.93,81,76,15.35,MH,1707262299
23,port mathurin,-19.6833,63.4167,80.6,69,55,16.71,MU,1707262533
24,thompson,55.7435,-97.8558,-0.24,71,75,11.5,CA,1707262533
25,ulladulla,-35.35,150.4667,66.47,63,38,11.63,AU,1707262534
26,mugia,43.1041,-9.2179,56.91,92,100,21.83,ES,1707262534
27,roma,43.2128,-75.4557,34.66,64,0,4.61,US,1707262238
28,whitehorse,60.7161,-135.0538,3.97,85,100,5.75,CA,1707262535
29,tiksi,71.6872,128.8694,-17.18,99,97,6.58,RU,1707262535
30,anadyr,64.75,177.4833,-8.9,76,20,15.66,RU,1707262535
31,amos,48.5669,-78.1162,29.26,93,100,6.33,CA,1707262536
32,port augusta,-32.5,137.7667,73.11,30,0,10.67,AU,1707262291
33,mansa,29.9833,75.3833,45.07,58,35,4.97,IN,1707262536
34,bilibino,68.0546,166.4372,-31.0,100,100,0.67,RU,1707262537
35,kapa'a,22.0752,-159.319,82.38,70,20,17.27,US,1707262250
36,puerto ayora,-0.7393,-90.3518,78.49,83,70,9.1,EC,1707262537
37,charters towers,-20.1,146.2667,86.61,51,29,7.9,AU,1707262538
38,longyearbyen,78.2186,15.6401,17.44,62,40,14.97,SJ,1707262538
39,homer,59.6425,-151.5483,36.03,89,64,4.47,US,1707262319
40,ain fakroun,35.9711,6.8737,48.85,42,76,5.88,DZ,1707262539
41,nyurba,63.2842,118.3319,-18.35,99,99,2.64,RU,1707262539
42,san patricio,28.017,-97.5169,68.72,56,0,8.25,US,1707262539
43,codrington,-38.2667,141.9667,63.68,68,62,8.95,AU,1707262540
44,carnarvon,-24.8667,113.6333,86.72,39,4,14.7,AU,1707262299
45,ushuaia,-54.8,-68.3,64.06,36,0,5.75,AR,1707262276
46,acarau,-2.8856,-40.12,81.66,80,73,15.86,BR,1707262541
47,nyuzen,36.9333,137.5,36.46,93,100,9.78,JP,1707262541
48,reggane,26.7158,0.1714,59.81,23,4,8.72,DZ,1707262541
49,wailua homesteads,22.0669,-159.378,81.03,71,20,17.27,US,1707262400
50,seryshevo,51.0933,128.3786,-1.35,92,85,2.3,RU,1707262542
51,safford,32.834,-109.7076,63.52,29,100,9.22,US,1707262542
52,ilulissat,69.2167,-51.1,14.02,48,100,23.02,GL,1707262543
53,gonabad,34.3529,58.6837,44.29,42,0,8.05,IR,1707262543
54,alice springs,-23.7,133.8833,74.21,65,40,13.8,AU,1707262544
55,nuuk,64.1835,-51.7216,20.88,62,100,10.0,GL,1707262544
56,albany,42.6001,-73.9662,32.34,71,5,2.84,US,1707262351
57,lockwood,45.8191,-108.4149,45.64,74,75,6.91,US,1707262544
58,chibougamau,49.9168,-74.3659,24.42,68,100,9.22,CA,1707262545
59,kyaikkami,16.08,97.5675,70.59,66,2,7.23,MM,1707262545
60,ketchikan,55.3422,-131.6461,37.87,75,100,0.0,US,1707262531
61,sechura,-5.5569,-80.8222,83.23,61,38,15.43,PE,1707262546
62,kittila,67.6647,24.8936,-7.38,77,75,2.3,FI,1707262546
63,lompoc,34.6391,-120.4579,57.78,65,75,16.11,US,1707262274
64,paulden,34.8856,-112.4682,43.39,83,100,11.99,US,1707262547
65,pisco,-13.7,-76.2167,80.65,65,0,14.97,PE,1707262548
66,zemetchino,53.4973,42.6163,17.85,95,92,8.14,RU,1707262548
67,vila velha,-20.3297,-40.2925,75.15,92,0,4.0,BR,1707262502
68,haiku-pauwela,20.9219,-156.3051,79.25,59,40,26.46,US,1707262549
69,bokhan,53.153,103.7714,-7.51,100,37,2.68,RU,1707262549
70,kivertsi,50.8343,25.4582,45.14,82,100,23.38,UA,1707262550
71,constantia,44.1833,28.65,50.7,61,45,10.25,RO,1707262550
72,beledweyne,4.7358,45.2036,79.59,67,87,8.99,SO,1707262550
73,zvolen,48.5744,19.1532,41.5,84,79,8.88,SK,1707262551
74,atafu village,-8.5421,-172.5159,83.62,80,99,25.93,TK,1707262306
75,calama,-22.4667,-68.9333,64.89,68,75,17.27,CL,1707262552
76,vihari,30.0333,72.35,52.34,37,57,3.56,PK,1707262552
77,praia da vitoria,38.7333,-27.0667,63.75,88,75,27.18,PT,1707262303
78,yulinshi,38.2906,109.7494,14.9,84,23,4.56,CN,1707262552
79,west island,-12.1568,96.8225,80.58,78,40,8.05,CC,1707262302
80,huarmey,-10.0681,-78.1522,78.12,76,21,9.82,PE,1707262553
81,yatou,37.15,122.3833,26.89,70,0,16.73,CN,1707262553
82,aykhal,66.0,111.5,-22.31,100,99,5.44,RU,1707262554
83,iqaluit,63.7506,-68.5145,-4.27,59,0,12.66,CA,1707262554
84,sept-iles,50.2001,-66.3821,23.0,75,20,3.44,CA,1707262262
85,colonia,50.9333,6.95,54.25,76,75,20.71,DE,1707262555
86,tralee,52.2704,-9.7026,40.01,87,99,5.08,IE,1707262556
87,ntchisi,-13.5278,33.9149,60.06,97,99,4.83,MW,1707262556
88,sonoita,31.85,-112.8333,56.43,81,95,24.61,MX,1707262556
89,newman,37.3138,-121.0208,55.74,79,80,8.99,US,1707262557
90,khalkhal,37.6189,48.5258,25.61,89,24,6.85,IR,1707262557
91,ribeira grande,38.5167,-28.7,63.77,94,90,20.0,PT,1707262557
92,blairgowrie,56.5916,-3.3405,35.02,80,98,1.01,GB,1707262558
93,pudozh,61.8099,36.5345,-16.06,100,73,4.0,RU,1707262558
94,kupang,-10.1667,123.5833,81.18,100,40,2.3,ID,1707262558
95,badger,64.8,-147.5333,14.13,76,20,4.61,US,1707262559
96,pangai,-19.8,-174.35,84.31,70,75,10.36,TO,1707262559
97,dunedin,-45.8742,170.5036,64.8,62,91,8.99,NZ,1707262281
98,katsuura,35.1333,140.3,43.07,66,98,11.72,JP,1707262304
99,port sudan,19.6175,37.2164,67.5,58,31,12.08,SD,1707262344
100,mezhdurechenskiy,59.6,65.9333,32.45,90,100,9.82,RU,1707262561
101,arraial do cabo,-22.9661,-42.0278,80.46,83,75,2.3,BR,1707262561
102,papatowai,-46.5619,169.4708,61.95,51,46,11.56,NZ,1707262561
103,la passe,45.5549,-0.8967,50.99,95,77,12.5,FR,1707262562
104,soeng sang,14.4264,102.4606,73.58,75,0,3.18,TH,1707262562
105,hawaiian paradise park,19.5933,-154.9731,76.87,74,100,18.41,US,1707262562
106,isafjordur,66.0755,-23.124,26.06,89,100,16.82,IS,1707262563
107,yellowknife,62.456,-114.3525,0.55,75,100,13.8,CA,1707262502
108,sao joao da barra,-21.6403,-41.0511,75.29,89,100,5.95,BR,1707262563
109,ha'il,27.5219,41.6907,44.62,49,0,2.3,SA,1707262564
110,lazaro cardenas,17.9583,-102.2,80.55,67,4,6.93,MX,1707262564
111,okhotsk,59.3833,143.3,-8.66,80,100,8.93,RU,1707262564
112,soure,-0.7167,-48.5233,80.37,85,46,10.67,BR,1707262565
113,kodiak,57.79,-152.4072,38.71,56,0,13.8,US,1707262565
114,slupsk,54.4641,17.0287,41.45,88,100,23.26,PL,1707262565
115,mumford,5.2618,-0.759,77.94,86,7,6.08,GH,1707262566
116,qaqortoq,60.7167,-46.0333,4.17,63,1,9.86,GL,1707262566
117,bubaque,11.2833,-15.8333,79.7,76,0,13.87,GW,1707262566
118,santa cruz,-17.8,-63.1667,86.05,58,40,13.8,BO,1707262306
119,caucete,-31.6518,-68.2811,97.07,24,89,18.07,AR,1707262567
120,kyadabek,40.5656,45.8161,26.64,71,66,8.25,AZ,1707262568
121,edinburgh of the seven seas,-37.0676,-12.3116,62.82,64,68,3.85,SH,1707262561
122,qarqaraly,49.4058,75.4742,17.02,76,85,8.16,KZ,1707262568
123,argo,37.6333,22.7333,54.79,48,1,5.12,GR,1707262569
124,punta arenas,-53.15,-70.9167,55.51,62,0,10.36,CL,1707262570
125,port macquarie,-31.4333,152.9167,72.9,85,100,12.66,AU,1707262409
126,tyazhinskiy,56.116,88.524,9.12,94,99,4.0,RU,1707262570
127,cartagena del chaira,1.3349,-74.8429,75.9,90,42,0.83,CO,1707262571
128,georgetown,5.4112,100.3354,80.53,89,20,5.75,MY,1707262571
129,ribeira brava,32.65,-17.0667,65.03,60,70,5.68,PT,1707262571
130,pravokumskoye,44.7694,44.6472,33.78,99,100,6.87,RU,1707262572
131,semporna,4.4818,118.6112,79.03,87,100,4.56,MY,1707262572
132,lamia,38.9,22.4333,58.12,42,27,4.47,GR,1707262572
133,islamorada,24.9243,-80.6278,66.02,84,7,19.35,US,1707262573
134,heroica caborca,30.7167,-112.15,57.34,76,100,10.13,MX,1707262573
135,ust-nera,64.5667,143.2,-28.93,92,91,0.63,RU,1707262573
136,smithers,54.7804,-127.1743,28.72,74,100,2.3,CA,1707262343
137,vorgashor,67.5833,63.95,-15.61,100,92,4.27,RU,1707262574
138,namibe,-15.1961,12.1522,76.28,79,100,0.4,AO,1707262574
139,jilib,0.4883,42.7854,78.24,87,92,8.19,SO,1707262575
140,fort bragg,35.139,-79.006,48.34,42,0,9.22,US,1707262572
141,stanley,54.868,-1.6985,36.72,75,0,8.05,GB,1707262564
142,copala,16.65,-98.9833,79.47,68,8,7.81,MX,1707262576
143,saipan,15.1355,145.701,81.3,61,0,12.66,MP,1707262564
144,madera,37.1666,-119.8343,55.31,83,97,4.99,US,1707262576
145,khovd,48.0056,91.6419,-7.06,96,51,1.25,MN,1707262577
146,baiyin,36.5583,104.2081,19.18,74,100,3.27,CN,1707262577
147,saldanha,-33.0117,17.9442,64.45,94,12,7.72,ZA,1707262577
148,nagqu,31.5,92.0,11.03,19,2,7.61,CN,1707262578
149,sai buri,6.7013,101.6168,74.91,88,59,5.57,TH,1707262578
150,fauske,67.2588,15.3918,21.24,90,98,6.69,NO,1707262578
151,port alfred,-33.5906,26.891,70.18,94,99,7.0,ZA,1707262579
152,fort st. john,56.2499,-120.8529,19.29,79,75,6.91,CA,1707262469
153,gamba,-2.65,10.0,78.17,86,94,4.21,GA,1707262579
154,nar'yan-mar,67.6713,53.087,-17.9,99,97,3.0,RU,1707262580
155,mingguang,32.7802,117.9638,26.15,89,93,4.14,CN,1707262580
156,talnakh,69.4865,88.3972,-5.06,85,100,7.09,RU,1707262289
157,sena madureira,-9.0656,-68.6569,76.75,88,30,2.53,BR,1707262581
158,kenora,49.8167,-94.4337,34.77,93,100,3.44,CA,1707262581
159,fort-shevchenko,44.5086,50.263,36.68,72,58,24.7,KZ,1707262581
160,qa'en,33.7265,59.1844,36.99,41,0,5.39,IR,1707262582
161,louisville,38.2542,-85.7594,45.1,63,0,6.91,US,1707262289
162,kegeyli shahar,42.7767,59.6078,33.89,74,52,19.8,UZ,1707262582
163,port elizabeth,-33.918,25.5701,69.31,92,40,19.57,ZA,1707262582
164,college,64.8569,-147.8028,14.2,76,40,4.61,US,1707262308
165,vilyuchinsk,52.9306,158.4028,16.07,82,100,4.25,RU,1707262293
166,hoemul-li,41.4339,129.67,25.14,56,5,2.95,KP,1707262583
167,afaahiti,-17.75,-149.2833,82.27,88,99,13.98,PF,1707262580
168,port lincoln,-34.7333,135.8667,66.11,65,8,9.75,AU,1707262305
169,ola,59.5833,151.2833,-15.86,83,96,9.04,RU,1707262584
170,linares,-35.85,-71.6,77.27,50,5,15.01,CL,1707262585
171,new norfolk,-42.7826,147.0587,66.7,42,96,6.29,AU,1707262585
172,berezovyy,51.6667,135.7,-0.71,79,7,1.88,RU,1707262585
173,aasiaat,68.7098,-52.8699,8.47,84,100,13.98,GL,1707262586
174,vadso,70.0744,29.7487,12.36,92,75,17.27,NO,1707262586
175,bredasdorp,-34.5322,20.0403,68.56,63,5,13.82,ZA,1707262586
176,aktobe,50.2797,57.2072,23.09,86,75,40.26,KZ,1707262587
177,ciudad bolivar,8.1222,-63.5497,93.2,37,53,5.55,VE,1707262549
178,san rafael,-34.6177,-68.3301,93.9,26,3,10.38,AR,1707262587
179,utrik,11.2278,169.8474,79.88,80,98,15.97,MH,1707262588
180,alofi,-19.0595,-169.9187,85.89,66,40,9.22,NU,1707262346
181,saguenay,48.4168,-71.0657,17.71,73,40,3.44,CA,1707262588
182,kidal,18.4411,1.4078,61.79,21,30,11.36,ML,1707262298
183,colonia rincon viejo,16.9,-95.05,67.96,73,34,12.68,MX,1707262589
184,loango,-4.6719,11.8312,78.46,94,20,3.44,CG,1707262589
185,ciutadella,40.0011,3.8414,50.81,81,98,6.06,ES,1707262590
186,aras-asan,8.8908,126.3033,77.31,84,98,1.39,PH,1707262590
187,hailar,49.2,119.7,-15.3,99,97,6.78,CN,1707262591
188,pil'na,55.5539,45.9219,0.09,93,33,11.92,RU,1707262591
189,yanchep,-31.55,115.6833,75.61,29,0,13.8,AU,1707262591
190,mahalapye,-23.1041,26.8142,78.08,30,4,7.94,BW,1707262592
191,mournies,35.4764,24.0092,58.84,87,20,11.5,GR,1707262592
192,veinticinco de mayo,-35.4323,-60.1727,80.73,60,39,12.62,AR,1707262592
193,canoinhas,-26.1772,-50.39,68.94,87,96,2.3,BR,1707262593
194,praya,14.9215,-23.5087,73.94,56,0,12.66,CV,1707262593
195,steinbach,50.1667,8.5667,49.75,83,100,18.41,DE,1707262593
196,lata,40.1629,-8.3327,49.91,92,46,3.71,PT,1707262594
197,toba,34.4833,136.85,43.09,68,46,5.01,JP,1707262594
198,cambria,35.5641,-121.0808,59.05,78,84,7.0,US,1707262594
199,paita,-5.0892,-81.1144,78.71,77,44,14.67,PE,1707262595
200,san antonio de pale,-1.4014,5.6325,82.22,74,56,1.07,GQ,1707262573
201,mary,37.0,62.5,50.61,38,98,10.6,TM,1707262596
202,iskateley,67.6803,53.1512,-17.99,99,98,3.0,RU,1707262596
203,sinop,41.7711,34.8709,43.48,68,20,12.97,TR,1707262596
204,zonguldak,41.25,31.8333,43.32,62,26,6.58,TR,1707262597
205,coracao de jesus,-16.6853,-44.365,70.29,87,100,3.51,BR,1707262524
206,bowen,-20.0167,148.2333,85.66,65,51,7.38,AU,1707262597
207,nuku'alofa,-21.1333,-175.2,84.54,70,20,8.05,TO,1707262306
208,ballina,-28.8667,153.5667,75.78,82,42,18.16,AU,1707262598
209,tura,25.5198,90.2201,54.57,97,0,2.86,IN,1707262563
210,el calafate,-50.3408,-72.2768,60.67,53,44,4.52,AR,1707262599
211,timimoun,29.2639,0.231,52.18,37,0,4.61,DZ,1707262599
212,kruisfontein,-34.0033,24.7314,67.1,85,42,9.19,ZA,1707262600
213,sosnovo-ozerskoye,52.5249,111.5418,-18.96,100,85,3.06,RU,1707262600
214,clorinda,-25.2848,-57.7185,91.56,73,72,7.0,AR,1707262600
215,tres lagoas,-20.7511,-51.6783,77.29,62,100,5.37,BR,1707262394
216,mexia,31.6799,-96.4822,68.05,34,0,0.0,US,1707262590
217,santa terezinha,-29.9002,-50.0904,74.64,89,100,13.27,BR,1707262601
218,reda,54.6053,18.3472,45.95,91,100,11.99,PL,1707262601
219,illizi,26.4833,8.4667,53.4,28,37,5.82,DZ,1707262602
220,alghero,40.5589,8.3181,46.49,93,0,3.44,IT,1707262602
221,st. john's,47.5649,-52.7093,33.67,94,100,30.0,CA,1707262467
222,jieshi,22.8134,115.8257,60.03,87,100,20.24,CN,1707262307
223,lihue,21.9789,-159.3672,81.64,70,20,17.27,US,1707262309
224,weno,7.4515,151.8468,84.15,70,40,13.8,FM,1707262604
225,wenchang,30.904,118.4887,32.4,96,100,4.07,CN,1707262604
226,tamanrasset,22.785,5.5228,44.51,21,0,0.0,DZ,1707262604
227,labytnangi,66.6572,66.4183,-15.59,100,100,2.75,RU,1707262605
228,ruteng,-8.6136,120.4721,69.58,72,67,0.69,ID,1707262605
229,taroa,8.7058,171.2275,81.39,75,99,16.67,MH,1707262606
230,tarakan,3.3,117.6333,78.3,94,40,4.61,ID,1707262606
231,villapinzon,5.2162,-73.5949,52.77,98,93,2.84,CO,1707262606
232,tofol,5.3248,163.0078,85.78,74,75,17.27,FM,1707262607
233,chonchi,-42.6128,-73.8092,64.31,95,92,9.26,CL,1707262607
234,beshkent,38.8214,65.6531,55.58,35,20,11.5,UZ,1707262607
235,silver springs,29.1044,-82.0206,60.19,53,0,1.01,US,1707262608
236,saint-pierre,-21.3393,55.4781,74.88,60,0,6.91,RE,1707262608
237,luena,-11.7833,19.9167,64.58,100,58,2.3,AO,1707262608
238,vila franca do campo,37.7167,-25.4333,64.89,99,100,15.7,PT,1707262609
239,kisanga,-7.4362,37.7034,74.62,96,8,1.39,TZ,1707262609
240,saraktash,51.7866,51.7866,15.22,89,100,28.23,RU,1707262609
241,hami,42.8,93.45,23.09,54,0,5.64,CN,1707262610
242,tazovsky,67.4667,78.7,0.43,99,95,7.74,RU,1707262599
243,solnechnyy,50.7214,136.6319,-20.97,93,33,3.29,RU,1707262610
244,east london,-33.0153,27.9116,73.51,89,96,6.58,ZA,1707262611
245,coruripe,-10.1256,-36.1756,80.13,83,87,10.25,BR,1707262513
246,waverly,42.7392,-84.6208,41.16,71,0,3.44,US,1707262611
247,obihiro,42.9172,143.2044,0.81,81,75,1.07,JP,1707262612
248,san luis de la loma,17.2706,-100.8939,80.4,68,12,5.91,MX,1707262612
249,tolanaro,-25.0319,46.9987,73.47,94,40,21.85,MG,1707262612
250,kamen'-na-obi,53.7884,81.3423,8.85,93,95,6.06,RU,1707262613
251,monrovia,6.3005,-10.7969,80.19,88,0,5.95,LR,1707262466
252,sumbe,-11.2061,13.8437,79.34,80,100,2.75,AO,1707262614
253,london,51.5085,-0.1257,55.8,89,100,17.27,GB,1707262337
254,palikir - national government center,6.9248,158.1611,83.25,83,100,17.27,FM,1707262614
255,opuwo,-18.0607,13.84,68.85,87,100,6.06,NA,1707262614
256,dong ha,16.8163,107.1003,71.26,95,1,2.35,VN,1707262615
257,udachny,66.4167,112.4,-22.56,74,96,4.21,RU,1707262615
258,talara,-4.5772,-81.2719,84.96,70,0,17.27,PE,1707262616
259,mengyin,35.7069,117.9264,26.76,80,14,2.86,CN,1707262616
260,la sarre,48.8002,-79.1996,31.17,94,100,7.76,CA,1707262397
261,verkhneyarkeyevo,55.4505,54.3145,31.84,98,100,10.92,RU,1707262617
262,kudahuvadhoo,2.6708,72.8944,81.36,81,64,11.3,MV,1707262617
263,xai-xai,-25.0519,33.6442,71.71,81,0,1.66,MZ,1707262617
264,thunder bay,48.4001,-89.3168,37.38,93,75,4.61,CA,1707262583
265,kapuskasing,49.4169,-82.4331,37.49,100,100,9.22,CA,1707262618
266,dolores,-36.3132,-57.6792,70.12,94,88,9.55,AR,1707262618
267,san rafael del yuma,18.4299,-68.6739,80.17,85,13,15.68,DO,1707262618
268,hithadhoo,-0.6,73.0833,83.08,74,43,7.16,MV,1707262567
269,puerto colombia,10.9878,-74.9547,84.29,72,33,17.85,CO,1707262619
270,avarua,-21.2078,-159.775,84.25,79,75,13.8,CK,1707262619
271,magdagachi,53.45,125.8,5.09,94,100,3.31,RU,1707262620
272,chillicothe,39.3331,-82.9824,42.39,52,0,3.44,US,1707262620
273,colares,38.7992,-9.4469,61.75,97,38,10.0,PT,1707262620
274,queenstown,-31.8976,26.8753,67.71,62,85,5.41,ZA,1707262621
275,margate,51.3813,1.3862,52.88,88,100,18.99,GB,1707262621
276,port hedland,-20.3167,118.5667,84.25,74,44,8.05,AU,1707262621
277,cururupu,-1.8283,-44.8683,76.96,95,47,3.49,BR,1707262622
278,al burayqah,30.4062,19.5739,60.44,67,0,5.99,LY,1707262622
279,yaren,-0.5472,166.916,84.24,74,91,13.96,NR,1707262622
280,lajere,11.9797,11.4443,66.67,26,81,11.32,NG,1707262623
281,dawei,14.0833,98.2,63.79,49,5,3.58,MM,1707262623
282,erenhot,43.6475,111.9767,-1.43,98,23,4.76,CN,1707262623
283,tyukhtet,56.5389,89.3011,12.87,92,100,4.52,RU,1707262624
284,misratah,32.3754,15.0925,61.23,55,28,6.15,LY,1707262624
285,machico,32.7,-16.7667,65.03,69,20,8.05,PT,1707262624
286,basco,20.4487,121.9702,76.1,80,19,10.58,PH,1707262625
287,cajazeiras,-6.8903,-38.5553,87.26,34,77,7.34,BR,1707262625
288,gebeit,21.0667,36.3167,52.75,78,26,4.12,SD,1707262625
289,alaghsas,17.0187,8.0168,62.46,22,96,14.5,NE,1707262626
290,sitka,57.0531,-135.33,39.09,81,75,5.75,US,1707262587
291,hermanus,-34.4187,19.2345,66.79,83,24,16.22,ZA,1707262627
292,mount pearl,47.5166,-52.7813,32.85,95,100,27.63,CA,1707262333
293,hun,29.1268,15.9477,55.08,36,0,4.74,LY,1707262627
294,xiongzhou,25.1167,114.3,41.65,94,100,4.47,CN,1707262628
295,kerikeri,-35.2268,173.9474,77.92,70,11,1.01,NZ,1707262628
296,port alberni,49.2413,-124.8028,45.12,64,39,1.07,CA,1707262628
297,hollidaysburg,40.4273,-78.3889,37.47,55,0,0.0,US,1707262353
298,ar ruways,24.1103,52.7306,64.33,53,29,14.2,AE,1707262629
299,arkhangel'sk,64.5401,40.5433,-12.87,75,20,0.0,RU,1707262629
300,dhidhdhoo,6.8833,73.1,81.34,72,79,8.1,MV,1707262630
301,rio preto da eva,-2.6994,-59.6997,82.49,68,84,2.59,BR,1707262630
302,benguela,-12.5763,13.4055,80.2,78,94,0.49,AO,1707262630
303,bikenibeu village,1.3673,173.1241,87.76,74,75,5.75,KI,1707262631
304,retreat,38.8245,-85.8533,41.95,65,62,3.0,US,1707262631
305,island harbour,50.724,-1.2758,53.31,93,100,14.0,GB,1707262632
306,myitkyina,25.3833,97.4,54.95,99,35,2.13,MM,1707262633
307,nova sintra,14.8667,-24.7167,70.11,71,0,9.66,CV,1707262633
308,bukama,-9.2,25.85,68.2,97,100,3.44,CD,1707262633
309,lensk,60.7253,114.9278,10.69,95,100,5.86,RU,1707262633
310,malvan,16.0667,73.4667,77.0,63,0,11.03,IN,1707262634
311,umm qasr,30.0405,47.9168,53.47,49,6,9.75,IQ,1707262634
312,kailua-kona,19.6406,-155.9956,78.76,77,75,6.91,US,1707262609
313,quellon,-43.1167,-73.6167,54.52,91,77,15.3,CL,1707262342
314,leava,-14.3,-178.1667,81.81,81,84,7.94,WF,1707262635
315,manado,1.487,124.8455,79.57,89,20,2.3,ID,1707262635
316,ust'-ilimsk,58.0006,102.6619,13.44,97,98,5.01,RU,1707262605
317,vernon,50.2581,-119.2691,36.75,93,100,0.0,CA,1707262443
318,tahe,52.3333,124.7333,9.59,94,100,3.89,CN,1707262636
319,mushabani,22.5167,86.45,65.59,81,0,2.77,IN,1707262637
320,markha,62.1053,129.7269,-36.44,67,100,2.24,RU,1707262637
321,raja,8.4596,25.678,70.41,18,54,5.93,SS,1707262637
322,kristinestad,62.2743,21.376,-2.85,100,86,4.92,FI,1707262638
323,luderitz,-26.6481,15.1594,66.09,82,68,12.53,NA,1707262638
324,papao,-17.75,-149.55,83.88,90,95,18.1,PF,1707262638
325,amparafaravola,-17.5833,48.2167,68.99,99,100,1.19,MG,1707262639
326,igarka,67.4667,86.5833,6.31,95,100,9.64,RU,1707262639
327,saint-leu,-21.15,55.2833,76.03,75,39,3.44,RE,1707262639
328,revda,56.801,59.9303,26.06,95,100,11.16,RU,1707262640
329,uacu cungo,-11.3634,15.1208,64.29,99,100,2.84,AO,1707262640
330,cockburn town,21.4612,-71.1419,76.96,65,40,19.57,TC,1707262513
331,katsuren-haebaru,26.3369,127.8719,65.17,80,100,5.75,JP,1707262641
332,greenville,35.6127,-77.3663,41.14,61,0,13.8,US,1707262596
333,chegdomyn,51.1167,133.0167,-16.38,99,99,0.56,RU,1707262641
334,rodolfo sanchez taboada,31.7167,-116.5667,57.09,78,88,7.0,MX,1707262642
335,panaba,21.2833,-88.2667,67.84,67,82,9.24,MX,1707262642
336,grand falls-windsor,48.9332,-55.6649,27.5,91,100,16.82,CA,1707262642
337,isiro,2.7739,27.616,70.34,49,41,3.04,CD,1707262643
338,barika,35.389,5.3658,50.81,38,81,4.43,DZ,1707262643
339,geraldton,-28.7667,114.6,81.01,21,0,19.57,AU,1707262643
340,walvis bay,-22.9575,14.5053,67.15,88,66,0.0,NA,1707262644
341,mananjary,-21.2167,48.3333,75.31,94,99,7.7,MG,1707262644
342,ephraim,39.3597,-111.5863,47.8,51,91,7.27,US,1707262645
343,alta,69.9689,23.2717,7.86,85,75,4.61,NO,1707262645
344,tocopilla,-22.092,-70.1979,75.31,75,3,2.53,CL,1707262645
345,welkom,-27.9864,26.7066,70.63,17,0,6.22,ZA,1707262646
346,mil'kovo,55.6078,37.7956,22.51,100,91,3.49,RU,1707262646
347,ostashkov,57.1467,33.1075,-3.26,100,98,3.13,RU,1707262647
348,puerto aysen,-45.4,-72.7,50.45,98,100,8.9,CL,1707262647
349,fukuecho,32.6881,128.8419,44.96,70,75,8.05,JP,1707262648
350,suva,-18.1416,178.4415,83.68,70,75,10.36,FJ,1707262648
351,maksatikha,57.797,35.8825,-3.6,100,91,3.27,RU,1707262648
352,bluefields,12.0137,-83.7635,78.87,69,20,4.61,NI,1707262649
353,santa rosa,14.3122,121.1114,80.08,78,37,6.93,PH,1707262649
354,ulsteinvik,62.3432,5.8487,24.08,75,100,3.0,NO,1707262649
355,brisas de zicatela,15.8369,-97.0419,81.12,69,75,3.44,MX,1707262650
356,kolwezi,-10.7148,25.4667,60.15,93,90,1.83,CD,1707262589
357,sydney,-33.8679,151.2073,73.47,70,75,23.02,AU,1707262546
358,karystos,38.0133,24.4161,60.42,83,14,1.01,GR,1707262650
359,caleta de carquin,-11.0925,-77.6267,77.54,77,20,9.46,PE,1707262651
360,kourou,5.1552,-52.6478,77.05,92,73,8.75,GF,1707262651
361,dudinka,69.4058,86.1778,-3.32,87,100,8.01,RU,1707262651
362,la carolina,38.2756,-3.6153,44.01,93,37,2.48,ES,1707262652
363,mar del plata,-38.0023,-57.5575,74.08,89,0,18.99,AR,1707262652
364,thief river falls,48.1191,-96.1812,34.75,93,100,4.61,US,1707262652
365,itoman,26.1247,127.6694,65.17,74,75,3.44,JP,1707262653
366,faya-largeau,17.9257,19.1043,62.71,26,95,20.89,TD,1707262653
367,villamontes,-21.25,-63.5,72.61,91,100,6.85,BO,1707262653
368,ragana,57.1803,24.7144,26.37,87,100,10.92,LV,1707262654
369,mahina,-17.5065,-149.489,83.97,79,75,9.22,PF,1707262428
370,sovetskiy,61.3614,63.5842,15.89,97,100,5.01,RU,1707262655
371,fortuna,40.5982,-124.1573,51.66,85,100,12.66,US,1707262655
372,dakhla,23.6848,-15.958,69.06,46,100,10.76,EH,1707262655
373,tual,-5.6667,132.75,82.9,76,96,18.28,ID,1707262656
374,tongliao,43.6125,122.2653,2.57,84,15,5.95,CN,1707262656
375,muynoq,43.7683,59.0214,34.18,71,80,22.3,UZ,1707262401
376,potsdam,52.3989,13.0657,52.09,86,100,22.77,DE,1707262656
377,ilhabela,-23.7781,-45.3581,76.71,91,100,4.5,BR,1707262657
378,masterton,-40.9597,175.6575,75.09,20,7,7.0,NZ,1707262657
379,bratsk,56.1325,101.6142,7.29,99,83,2.8,RU,1707262657
380,ilebo,-4.3167,20.5833,71.04,94,50,1.45,CD,1707262658
381,moose jaw,50.4001,-105.5344,28.65,93,59,10.36,CA,1707262658
382,auki,-8.7676,160.7034,81.66,86,98,11.34,SB,1707262611
383,timbiqui,2.7717,-77.6654,77.68,88,85,1.52,CO,1707262659
384,khamis mushait,18.3064,42.7292,58.24,77,40,11.5,SA,1707262659
385,cooper's town,26.8667,-77.5167,66.76,89,56,45.48,BS,1707262660
386,vanimo,-2.6741,141.3028,79.02,92,100,13.29,PG,1707262660
387,outjo,-20.1167,16.15,70.09,74,99,4.74,NA,1707262660
388,robore,-18.3333,-59.75,74.32,87,71,1.3,BO,1707262661
389,castillos,-34.1667,-53.8333,69.8,75,0,13.22,UY,1707262661
390,coquimbo,-29.9533,-71.3436,69.53,77,0,10.36,CL,1707262662
391,rongelap,11.1635,166.8941,80.04,81,98,13.62,MH,1707262662
392,businga,3.3333,20.8833,73.44,41,43,1.05,CD,1707262662
393,guenange,49.2995,6.2075,50.18,90,100,19.24,FR,1707262663
394,stara zagora,42.4328,25.6419,49.03,54,80,2.37,BG,1707262663
395,kingaroy,-26.5333,151.8333,83.08,54,9,10.85,AU,1707262664
396,maintirano,-18.0667,44.0167,81.37,81,100,7.09,MG,1707262664
397,natal,-5.795,-35.2094,82.62,83,20,6.91,BR,1707262413
398,cruzeiro do sul,-29.5128,-51.9853,75.33,83,100,4.68,BR,1707262664
399,uturoa,-16.7333,-151.4333,82.31,89,100,30.11,PF,1707262665
400,salvador,13.8333,-88.9167,84.6,28,0,4.27,SV,1707262610
401,kandla,23.0333,70.2167,69.71,72,76,7.9,IN,1707262665
402,salinopolis,-0.6136,-47.3561,80.73,84,56,10.96,BR,1707262666
403,la'ie,21.6477,-157.9253,80.56,68,13,22.39,US,1707262666
404,tselinnoye,53.0833,85.6667,6.6,99,75,4.03,RU,1707262666
405,lilongwe,-13.9669,33.7873,65.95,96,100,2.68,MW,1707262667
406,lodja,-3.4833,23.4333,69.82,90,73,1.43,CD,1707262667
407,kibre mengist,5.8833,38.9833,56.77,55,3,3.04,ET,1707262667
408,hualahuises,24.8847,-99.6733,68.74,34,3,7.07,MX,1707262667
409,atar,20.5169,-13.0499,70.34,9,38,9.86,MR,1707262668
410,sinabang,2.4803,96.3801,80.11,80,76,2.39,ID,1707262572
411,mejit,10.2753,170.8646,80.58,79,91,17.54,MH,1707262668
412,ejirin,6.6142,3.9002,74.08,66,74,0.85,NG,1707262669
413,isangel,-19.55,169.2667,84.31,79,100,5.75,VU,1707262669
414,mukalla,14.5425,49.1242,72.93,82,19,4.56,YE,1707262670
415,egilsstadir,65.2653,-14.3948,21.11,93,100,2.3,IS,1707262670
416,flin flon,54.7682,-101.865,8.44,78,100,5.75,CA,1707262670
417,kununurra,-15.7667,128.7333,80.58,94,75,3.44,AU,1707262671
418,gadzhiyevo,69.2551,33.3362,1.89,96,98,8.93,RU,1707262671
419,dem'yanovo,60.3511,47.0842,-15.86,100,88,5.06,RU,1707262671
420,karratha,-20.7377,116.8463,83.5,61,62,1.01,AU,1707262671
421,piti village,13.4626,144.6933,81.48,73,20,10.36,GU,1707262614
422,domna,51.8971,113.1573,-15.97,75,24,2.24,RU,1707262672
423,barcarena,-1.5058,-48.6258,77.05,90,40,6.2,BR,1707262672
424,yorosso,12.3536,-4.7761,74.7,14,70,10.67,ML,1707262673
425,swakopmund,-22.6833,14.5333,67.05,91,72,5.64,NA,1707262673
426,abnub,27.2696,31.1511,53.82,56,0,5.57,EG,1707262673
427,bousse,12.6606,-1.8922,71.58,15,88,10.87,BF,1707262674
428,akureyri,65.6835,-18.0878,24.73,93,75,5.75,IS,1707262674
429,touros,-5.1989,-35.4608,81.41,78,100,12.66,BR,1707262492
430,macau,22.2006,113.5461,62.33,94,75,10.36,MO,1707262675
431,fuerte olimpo,-21.0415,-57.8738,80.11,73,99,8.39,PY,1707262675
432,puerto lempira,15.2667,-83.7667,82.54,74,20,11.5,HN,1707262676
433,dhenkanal,20.6667,85.6,69.24,92,0,3.09,IN,1707262676
434,murun-kuren,49.6342,100.1625,-7.24,96,98,1.88,MN,1707262615
435,burutu,5.3509,5.5076,78.69,85,59,3.65,NG,1707262676
436,kargopol',61.5071,38.9456,-22.32,100,96,1.95,RU,1707262677
437,kotli,33.5167,73.9167,41.99,54,15,5.82,PK,1707262677
438,wurtulla,-26.7568,153.1256,84.06,92,31,1.99,AU,1707262677
439,chernyshevskiy,63.0128,112.4714,-28.23,100,88,3.06,RU,1707262678
440,latakia,35.5148,35.7768,62.8,75,5,13.98,SY,1707262678
441,kone,-21.0595,164.8658,81.14,80,100,5.86,NC,1707262678
442,harstad,68.799,16.5293,25.16,94,93,8.99,NO,1707262679
443,itamaraca,-7.7478,-34.8256,84.25,78,82,8.75,BR,1707262679
444,lorengau,-2.0226,147.2712,81.25,84,100,13.87,PG,1707262680
445,bereznik,62.8551,42.7072,-14.82,100,97,0.67,RU,1707262680
446,manokwari,-0.8667,134.0833,78.66,82,100,7.72,ID,1707262680
447,trang,7.5,99.5,73.35,100,20,0.0,TH,1707262681
448,puerto baquerizo moreno,-0.9,-89.6,78.73,82,41,11.36,EC,1707262681
449,renfrew,55.872,-4.3925,37.15,88,100,1.14,GB,1707262681
450,betio village,1.358,172.9211,87.84,78,96,13.44,KI,1707262681
451,mariehamn,60.0973,19.9348,23.83,74,100,8.05,AX,1707262682
452,belyy yar,53.6039,91.3903,-7.71,92,79,0.0,RU,1707262682
453,luanda,-8.8368,13.2343,80.6,89,75,6.91,AO,1707262682
454,korce,40.6186,20.7808,40.84,85,24,5.86,AL,1707262453
455,pointe-noire,-4.7761,11.8635,78.87,94,20,3.44,CG,1707262683
456,uspenskoye,44.8311,41.3927,45.57,79,100,22.79,RU,1707262684
457,urcos,-13.6861,-71.6228,58.89,83,94,6.04,PE,1707262684
458,sangkhla buri,15.1555,98.4536,61.05,50,8,1.59,TH,1707262684
459,nantwich,53.0688,-2.5205,41.56,92,100,5.3,GB,1707262685
460,paoua,7.2427,16.4406,70.92,24,51,5.28,CF,1707262685
461,porto velho,-8.7619,-63.9039,84.25,79,75,3.44,BR,1707262596
462,khanty-mansiysk,61.0042,69.0019,32.11,100,75,7.0,RU,1707262686
463,ingeniero jacobacci,-41.3427,-69.5448,68.02,55,99,21.3,AR,1707262686
464,lashkar gah,31.5938,64.3716,46.42,35,52,9.6,AF,1707262686
465,odienne,9.51,-7.5692,77.76,17,4,3.18,CI,1707262687
466,gisborne,-38.6533,178.0042,76.96,62,6,6.02,NZ,1707262687
467,nuevo ideal,24.8875,-105.0728,72.48,8,54,16.37,MX,1707262687
468,kristiansund,63.1115,7.732,18.25,86,50,3.44,NO,1707262687
469,giddalur,15.35,78.9167,68.29,80,0,1.14,IN,1707262688
470,maralal,1.0968,36.698,61.45,61,59,4.5,KE,1707262688
471,worgl,47.4833,12.0667,36.54,82,19,1.81,AT,1707262688
472,crane,31.3974,-102.3501,61.12,40,97,18.68,US,1707262689
473,gunsan,35.9786,126.7114,31.89,74,100,0.0,KR,1707262689
474,ancud,-41.8697,-73.8203,60.62,90,99,19.66,CL,1707262689
475,mount gambier,-37.8333,140.7667,64.58,58,70,5.79,AU,1707262550
476,ta`u,-14.2336,-169.5144,82.85,83,100,29.91,AS,1707262690
477,scarborough,54.2797,-0.4044,42.66,77,100,5.01,GB,1707262441
478,kursenai,55.985,22.9189,28.65,98,100,9.64,LT,1707262691
479,fale old settlement,-9.3852,-171.2468,83.77,80,99,26.46,TK,1707262691
480,mankoeng,-23.9,29.8167,67.57,82,0,6.58,ZA,1707262691
481,murghob,38.1702,73.9667,-9.6,82,26,5.32,TJ,1707262692
482,andratx,39.5755,2.4202,51.96,74,100,7.16,ES,1707262692
483,parnu,58.3859,24.4971,24.89,74,100,11.5,EE,1707262692
484,borzya,50.3833,116.5167,-16.46,99,80,1.32,RU,1707262692
485,horsham,51.064,-0.3272,55.56,85,75,19.57,GB,1707262693
486,necochea,-38.5473,-58.7368,77.23,76,54,22.21,AR,1707262693
487,murovani kurylivtsi,48.7235,27.5189,43.66,77,100,12.26,UA,1707262693
488,vilyuysk,63.7553,121.6247,-20.99,100,99,1.01,RU,1707262694
489,sabzevar,36.2126,57.6819,39.09,64,7,1.7,IR,1707262694
490,lerwick,60.1545,-1.1494,33.8,66,97,18.86,GB,1707262694
491,revelstoke,50.9832,-118.2023,33.82,100,100,0.0,CA,1707262695
492,pacific grove,36.6177,-121.9166,57.88,73,20,11.5,US,1707262695
493,lewin brzeski,50.7487,17.6169,47.93,67,100,24.07,PL,1707262695
494,el granada,37.5027,-122.4694,59.9,65,0,12.66,US,1707262609
495,zaozersk,69.4005,32.4476,1.58,94,97,7.83,RU,1707262696
496,borogontsy,62.6683,131.1683,-31.38,100,100,1.86,RU,1707262696
497,mount isa,-20.7333,139.5,83.97,54,99,17.27,AU,1707262621
498,pionerskiy,54.9508,20.2275,44.82,87,100,35.28,RU,1707262697
499,igrim,63.1906,64.4162,11.26,96,100,7.25,RU,1707262697
500,kavalerovo,44.2661,135.0572,3.4,97,25,5.01,RU,1707262697
501,sarakhs,36.5449,61.1577,52.68,39,61,13.22,IR,1707262698
502,westport,41.1415,-73.3579,37.22,64,0,4.0,US,1707262470
503,remire-montjoly,4.9167,-52.2667,77.04,100,75,0.0,GF,1707262698
504,fenghua,29.6563,121.4064,35.49,93,75,6.71,CN,1707262699
505,mersing,2.4312,103.8405,78.71,89,20,6.91,MY,1707262699
506,bay city,43.5945,-83.8889,38.41,80,0,5.75,US,1707262699
507,soe,-9.8607,124.284,72.82,79,83,3.4,ID,1707262700
508,tangalle,6.024,80.7911,72.23,85,46,11.43,LK,1707262539
509,keflavik,64.0049,-22.5624,28.83,80,40,24.16,IS,1707262700
510,ha tinh,18.3333,105.9,71.85,93,86,1.52,VN,1707262701
511,safi,32.1667,-8.8333,54.52,56,0,7.34,MA,1707262676
512,songjianghe,42.1859,127.479,5.31,89,35,0.98,CN,1707262701
513,bodo,67.28,14.405,21.24,86,100,18.41,NO,1707262702
514,taishan,22.2514,112.7799,60.8,79,100,7.31,CN,1707262702
515,broken hill,-31.95,141.4333,70.54,31,70,17.45,AU,1707262702
516,mazatlan,23.2167,-106.4167,80.56,65,40,5.75,MX,1707262703
517,knyaze-volkonskoye,48.4642,135.4567,-8.72,100,87,3.67,RU,1707262703
518,mizan teferi,6.9833,35.5833,65.59,74,14,2.13,ET,1707262703
519,celestun,20.8667,-90.4,69.87,61,21,10.13,MX,1707262703
520,belmonte,-15.8631,-38.8828,78.8,85,68,6.15,BR,1707262704
521,dickinson,29.4608,-95.0513,71.69,42,0,3.44,US,1707262480
522,lisakovsk,52.5369,62.4936,32.74,97,100,18.63,KZ,1707262704
523,phang nga,8.4509,98.5298,77.04,91,8,3.06,TH,1707262705
524,bera,24.0833,89.6167,62.24,77,0,6.4,BD,1707262705
525,camayenne,9.535,-13.6878,80.69,83,0,6.91,GN,1707262423
526,brokopondo,4.75,-55.1667,76.82,89,100,9.57,SR,1707262706
527,hardegsen,51.65,9.8333,51.75,88,100,22.68,DE,1707262706
528,hinton,53.4001,-117.5857,29.48,82,91,3.04,CA,1707262707
529,nova vicosa,-17.8919,-39.3719,79.05,84,74,6.64,BR,1707262707
530,dazhong,33.1997,120.4578,33.3,76,100,6.85,CN,1707262707
531,baganga,7.5739,126.56,78.64,79,100,4.18,PH,1707262708
532,rey bouba,8.6724,14.1786,74.08,19,99,0.38,CM,1707262708
533,yemva,62.59,50.8594,-25.91,100,100,3.51,RU,1707262708
534,sao gabriel da cachoeira,-0.1303,-67.0892,75.56,98,97,2.04,BR,1707262709
535,bei'an,24.5399,109.533,40.73,88,100,5.95,CN,1707262709
536,howrah,22.5892,88.3103,68.0,94,75,8.05,IN,1707262709
537,tobol'sk,58.2,68.2667,26.6,91,100,10.0,RU,1707262710
538,mora,11.0461,14.1401,70.56,20,100,5.01,CM,1707262710
539,tonghua,41.7201,125.9219,0.48,91,26,2.08,CN,1707262710
540,ad dabbah,18.05,30.95,56.59,30,96,11.23,SD,1707262710
541,onega,63.9061,38.1404,-16.62,99,67,3.76,RU,1707262711
542,bhimunipatnam,17.8833,83.4333,71.11,83,0,4.5,IN,1707262711
543,yamada,39.4667,141.95,35.19,55,96,1.97,JP,1707262711
544,junin de los andes,-39.9504,-71.0694,62.29,83,98,5.91,AR,1707262546
545,zhicheng,30.2956,111.5047,27.77,94,78,3.04,CN,1707262712
546,hasaki,35.7333,140.8333,37.29,51,89,15.41,JP,1707262712
547,vesele,47.0148,34.915,42.04,84,100,9.53,UA,1707262713
548,constitucion,-35.3333,-72.4167,64.26,92,43,13.53,CL,1707262713
549,ujae,8.9322,165.7642,81.3,77,82,13.87,MH,1707262714
550,susuman,62.7833,148.1667,-28.01,99,99,3.0,RU,1707262593
551,sur,22.5667,59.5289,71.08,61,100,6.26,OM,1707262577
552,kalkaman,51.9525,76.0211,21.49,80,98,10.2,KZ,1707262715
553,neya,58.2972,43.8681,-13.79,99,30,5.17,RU,1707262715
554,megion,61.0296,76.1136,30.22,92,100,13.51,RU,1707262716
555,dubbo,-32.25,148.6167,73.53,56,75,23.02,AU,1707262716
556,antonio enes,-16.2325,39.9086,76.5,92,100,6.06,MZ,1707262717
557,ebon,4.582,168.6964,82.29,80,82,15.23,MH,1707262717
558,bonthe,7.5264,-12.505,79.59,89,0,5.48,SL,1707262717
559,idanre,7.1127,5.1159,72.36,28,85,1.12,NG,1707262717
560,taltal,-25.4,-70.4833,71.89,79,21,2.46,CL,1707262718
561,jianguang,28.1938,115.7836,34.11,99,100,3.0,CN,1707262718
562,udaipur,24.5712,73.6918,55.83,60,83,2.86,IN,1707262718
563,maymana,35.9214,64.7836,45.41,39,73,15.1,AF,1707262719
564,midvagur,62.0511,-7.1939,31.03,55,75,11.5,FO,1707262719
565,kavaratti,10.5669,72.642,81.68,76,7,6.62,IN,1707262719
566,tsiombe,-25.3,45.4833,72.03,92,56,4.85,MG,1707262720
567,pangobilian,8.8011,117.8594,80.4,80,26,9.37,PH,1707262720
568,jiagedaqi,50.4167,124.1167,1.54,88,88,4.03,CN,1707262720
569,barcelona,41.3888,2.159,54.32,81,20,1.14,ES,1707262117
570,kinablangan,7.6947,126.5503,77.88,80,100,3.53,PH,1707262721
571,grants pass,42.439,-123.3284,52.18,68,75,5.75,US,1707262405
572,ta'izz,13.5,44.0,64.04,87,88,3.13,YE,1707262722
573,tabou,4.423,-7.3528,81.23,81,4,7.9,CI,1707262584
574,ivdel',60.6911,60.4206,6.19,96,100,7.0,RU,1707262722
575,dunlop,-35.194,149.0198,66.7,60,20,1.99,AU,1707262723
576,cookeville,36.1628,-85.5016,54.41,63,0,3.44,US,1707262723
577,paracuru,-3.41,-39.0306,81.28,81,91,13.38,BR,1707262723
578,zeya,53.75,127.2667,-11.51,99,100,1.14,RU,1707262723
579,pak phanang,8.3511,100.202,73.42,85,8,2.33,TH,1707262724
580,chui,-33.6971,-53.4616,69.93,75,1,13.27,UY,1707262724
581,patong,7.8961,98.2966,77.14,80,52,7.16,TH,1707262724
582,sola,-13.8833,167.55,82.99,76,73,18.12,VU,1707262725
583,santa ana,33.7456,-117.8678,57.06,91,100,6.91,US,1707262725
584,tashtyp,52.7939,89.8983,-2.38,96,31,1.81,RU,1707262508
585,san julian,21.0167,-102.1667,71.83,13,0,5.23,MX,1707262726
586,nha trang,12.25,109.1833,75.2,88,87,4.74,VN,1707262726
587,huicungo,-7.2833,-76.8,79.59,71,53,1.19,PE,1707262726
588,dawesville,30.9224,-84.0091,57.61,41,0,5.75,US,1707262726
589,cootamundra,-34.65,148.0333,71.94,48,26,14.88,AU,1707262727
590,nemuro,43.3236,145.575,19.38,66,62,4.65,JP,1707262727
591,ammi moussa,35.8678,1.1114,53.31,62,0,4.81,DZ,1707262727
592,akrehamn,59.2667,5.1833,34.05,64,81,28.77,NO,1707262728
593,diok'nisi,41.6293,42.3917,36.82,99,100,9.13,GE,1707262728
